%time,field.header.seq,field.header.stamp,field.header.frame_id,field.accels.x,field.accels.y,field.accels.z,field.gyros.x,field.gyros.y,field.gyros.z,field.mags.x,field.mags.y,field.mags.z
1341687560941626000,146133,1341687560941626000,imu,-0.0146627565982,-0.0117302052786,1.02639296188,-0.0332355816227,0.000977517106549,0.0420332355816,-0.0146627565982,-0.0117302052786,1.02639296188
1341687560989580000,146134,1341687560989580000,imu,-0.0351906158358,0.0019550342131,1.02639296188,-0.069403714565,0.0322580645161,0.0371456500489,-0.0351906158358,0.0019550342131,1.02639296188
1341687561037482000,146135,1341687561037482000,imu,-0.0127077223851,-0.0127077223851,1.02541544477,-0.0342130987292,-0.00293255131965,0.00782013685239,-0.0127077223851,-0.0127077223851,1.02541544477
1341687561101374000,146136,1341687561101374000,imu,-0.0205278592375,0.0,1.03910068426,-0.0703812316716,0.010752688172,0.0175953079179,-0.0205278592375,0.0,1.03910068426
1341687561148666000,146137,1341687561148666000,imu,-0.0283479960899,-0.010752688172,1.01759530792,-0.0224828934506,-0.000977517106549,0.049853372434,-0.0283479960899,-0.010752688172,1.01759530792
1341687561198017000,146138,1341687561198017000,imu,-0.0342130987292,-0.0185728250244,1.01857282502,-0.0977517106549,-0.0117302052786,0.0381231671554,-0.0342130987292,-0.0185728250244,1.01857282502
1341687561244492000,146139,1341687561244492000,imu,-0.0224828934506,0.00293255131965,1.04105571848,0.0,-0.0019550342131,0.0293255131965,-0.0224828934506,0.00293255131965,1.04105571848
1341687561292943000,146140,1341687561292943000,imu,-0.0273704789834,-0.0117302052786,1.05571847507,-0.039100684262,0.010752688172,0.00293255131965,-0.0273704789834,-0.0117302052786,1.05571847507
1341687561341291000,146141,1341687561341291000,imu,-0.0283479960899,-0.0244379276637,1.02737047898,0.0185728250244,0.0224828934506,0.0312805474096,-0.0283479960899,-0.0244379276637,1.02737047898
1341687561389404000,146142,1341687561389404000,imu,-0.0175953079179,-0.00293255131965,1.05571847507,-0.0351906158358,0.0254154447703,0.0371456500489,-0.0175953079179,-0.00293255131965,1.05571847507
1341687561437292000,146143,1341687561437292000,imu,-0.0156402737048,-0.00488758553275,1.04301075269,-0.00293255131965,0.00488758553275,0.0117302052786,-0.0156402737048,-0.00488758553275,1.04301075269
1341687561484687000,146144,1341687561484687000,imu,-0.0361681329423,0.0058651026393,1.04692082111,0.0127077223851,-0.0117302052786,0.0117302052786,-0.0361681329423,0.0058651026393,1.04692082111
1341687561548568000,146145,1341687561548568000,imu,-0.0254154447703,-0.000977517106549,1.03616813294,-0.00782013685239,-0.00782013685239,-0.00684261974585,-0.0254154447703,-0.000977517106549,1.03616813294
1341687561596433000,146146,1341687561596433000,imu,-0.019550342131,0.0058651026393,1.04594330401,0.00879765395894,0.0175953079179,0.0449657869013,-0.019550342131,0.0058651026393,1.04594330401
1341687561644439000,146147,1341687561644439000,imu,-0.0273704789834,0.0039100684262,1.03323558162,-0.0547409579668,0.00293255131965,0.019550342131,-0.0273704789834,0.0039100684262,1.03323558162
1341687561693400000,146148,1341687561693400000,imu,-0.0254154447703,-0.0019550342131,1.0293255132,-0.0136852394917,0.010752688172,0.0478983382209,-0.0254154447703,-0.0019550342131,1.0293255132
1341687561741443000,146149,1341687561741443000,imu,-0.019550342131,-0.0136852394917,1.04789833822,-0.0361681329423,0.0019550342131,0.0156402737048,-0.019550342131,-0.0136852394917,1.04789833822
1341687561789507000,146150,1341687561789507000,imu,-0.0146627565982,-0.0136852394917,1.02052785924,-0.019550342131,-0.000977517106549,0.0166177908113,-0.0146627565982,-0.0136852394917,1.02052785924
1341687561837187000,146151,1341687561837187000,imu,-0.00879765395894,-0.00684261974585,1.03323558162,-0.0361681329423,-0.010752688172,-0.0058651026393,-0.00879765395894,-0.00684261974585,1.03323558162
1341687561900562000,146152,1341687561900562000,imu,-0.0263929618768,0.00782013685239,1.04887585533,-0.0136852394917,-0.00977517106549,0.010752688172,-0.0263929618768,0.00782013685239,1.04887585533
1341687561949666000,146153,1341687561949666000,imu,-0.0244379276637,-0.00977517106549,1.01857282502,-0.0557184750733,-0.00293255131965,0.0019550342131,-0.0244379276637,-0.00977517106549,1.01857282502
1341687561997208000,146154,1341687561997208000,imu,-0.030303030303,-0.0166177908113,1.04398826979,-0.0019550342131,-0.00879765395894,0.0273704789834,-0.030303030303,-0.0166177908113,1.04398826979
1341687562044638000,146155,1341687562044638000,imu,-0.0175953079179,0.0,1.03519061584,-0.0175953079179,0.0146627565982,0.0410557184751,-0.0175953079179,0.0,1.03519061584
1341687562092412000,146156,1341687562092412000,imu,-0.0185728250244,0.00684261974585,1.04007820137,-0.0400782013685,0.0185728250244,0.0146627565982,-0.0185728250244,0.00684261974585,1.04007820137
1341687562140929000,146157,1341687562140929000,imu,-0.0244379276637,0.0058651026393,1.06451612903,0.0459433040078,-0.00782013685239,0.0205278592375,-0.0244379276637,0.0058651026393,1.06451612903
1341687562189430000,146158,1341687562189430000,imu,-0.0244379276637,-0.019550342131,1.0293255132,-0.0342130987292,0.00684261974585,0.0166177908113,-0.0244379276637,-0.019550342131,1.0293255132
1341687562237278000,146159,1341687562237278000,imu,-0.0273704789834,0.0019550342131,1.01368523949,-0.0410557184751,-0.00293255131965,0.069403714565,-0.0273704789834,0.0019550342131,1.01368523949
1341687562301305000,146160,1341687562301305000,imu,-0.010752688172,-0.010752688172,1.03128054741,-0.0205278592375,0.0439882697947,0.0478983382209,-0.010752688172,-0.010752688172,1.03128054741
1341687562349141000,146161,1341687562349141000,imu,-0.0224828934506,-0.0039100684262,1.03323558162,-0.0381231671554,0.0244379276637,0.0312805474096,-0.0224828934506,-0.0039100684262,1.03323558162
1341687562397381000,146162,1341687562397381000,imu,-0.0400782013685,0.0175953079179,1.05083088954,-0.0439882697947,-0.00782013685239,0.0205278592375,-0.0400782013685,0.0175953079179,1.05083088954
1341687562445179000,146163,1341687562445179000,imu,-0.019550342131,-0.0166177908113,1.04398826979,-0.0019550342131,-0.00684261974585,0.00977517106549,-0.019550342131,-0.0166177908113,1.04398826979
1341687562493667000,146164,1341687562493667000,imu,-0.0185728250244,-0.00293255131965,1.05083088954,0.0039100684262,-0.010752688172,0.0420332355816,-0.0185728250244,-0.00293255131965,1.05083088954
1341687562540653000,146165,1341687562540653000,imu,-0.00782013685239,-0.0136852394917,1.03128054741,-0.0576735092864,-0.0175953079179,0.00977517106549,-0.00782013685239,-0.0136852394917,1.03128054741
1341687562588988000,146166,1341687562588988000,imu,-0.0039100684262,-0.0234604105572,1.02443792766,-0.0508308895406,0.00293255131965,-0.0136852394917,-0.0039100684262,-0.0234604105572,1.02443792766
1341687562636383000,146167,1341687562636383000,imu,-0.0351906158358,-0.000977517106549,1.0293255132,-0.0322580645161,0.0205278592375,0.010752688172,-0.0351906158358,-0.000977517106549,1.0293255132
1341687562700929000,146168,1341687562700929000,imu,-0.0234604105572,-0.0224828934506,1.02834799609,0.010752688172,0.030303030303,0.0156402737048,-0.0234604105572,-0.0224828934506,1.02834799609
1341687562748866000,146169,1341687562748866000,imu,-0.0175953079179,-0.0117302052786,1.02346041056,-0.0723362658847,-0.0127077223851,0.0420332355816,-0.0175953079179,-0.0117302052786,1.02346041056
1341687562796834000,146170,1341687562796834000,imu,-0.0166177908113,-0.0019550342131,1.00293255132,-0.0596285434995,0.245356793744,0.0322580645161,-0.0166177908113,-0.0019550342131,1.00293255132
1341687562845310000,146171,1341687562845310000,imu,-0.0244379276637,-0.0205278592375,1.0303030303,-0.00879765395894,0.0127077223851,0.0371456500489,-0.0244379276637,-0.0205278592375,1.0303030303
1341687562893201000,146172,1341687562893201000,imu,-0.0361681329423,-0.0185728250244,1.01368523949,-0.019550342131,0.00293255131965,0.0371456500489,-0.0361681329423,-0.0185728250244,1.01368523949
1341687562941393000,146173,1341687562941393000,imu,-0.030303030303,-0.0175953079179,1.0293255132,-0.00782013685239,-0.00684261974585,0.0263929618768,-0.030303030303,-0.0175953079179,1.0293255132
1341687562988575000,146174,1341687562988575000,imu,-0.0283479960899,0.00293255131965,1.02737047898,-0.0166177908113,0.0244379276637,0.0293255131965,-0.0283479960899,0.00293255131965,1.02737047898
1341687563037659000,146175,1341687563037659000,imu,-0.0283479960899,0.00879765395894,1.03128054741,-0.0361681329423,0.0146627565982,0.010752688172,-0.0283479960899,0.00879765395894,1.03128054741
1341687563084639000,146176,1341687563084639000,imu,-0.00782013685239,-0.0205278592375,1.01759530792,-0.0596285434995,0.0019550342131,0.0381231671554,-0.00782013685239,-0.0205278592375,1.01759530792
1341687563148616000,146177,1341687563148616000,imu,-0.010752688172,0.000977517106549,1.04007820137,-0.0439882697947,-0.0136852394917,0.0185728250244,-0.010752688172,0.000977517106549,1.04007820137
1341687563197513000,146178,1341687563197513000,imu,-0.0175953079179,-0.00977517106549,1.03616813294,-0.0215053763441,0.000977517106549,0.010752688172,-0.0175953079179,-0.00977517106549,1.03616813294
1341687563245245000,146179,1341687563245245000,imu,-0.0371456500489,-0.010752688172,1.04105571848,-0.0224828934506,0.0185728250244,0.010752688172,-0.0371456500489,-0.010752688172,1.04105571848
1341687563293277000,146180,1341687563293277000,imu,-0.00879765395894,0.0224828934506,1.06744868035,0.0146627565982,0.00782013685239,0.058651026393,-0.00879765395894,0.0224828934506,1.06744868035
1341687563341688000,146181,1341687563341688000,imu,-0.0263929618768,0.000977517106549,1.03128054741,-0.039100684262,0.0,-0.00782013685239,-0.0263929618768,0.000977517106549,1.03128054741
1341687563389294000,146182,1341687563389294000,imu,-0.0205278592375,-0.00684261974585,1.02346041056,-0.0244379276637,0.0136852394917,0.0175953079179,-0.0205278592375,-0.00684261974585,1.02346041056
1341687563437397000,146183,1341687563437397000,imu,-0.0244379276637,-0.00488758553275,1.03225806452,-0.0361681329423,-0.0019550342131,0.0156402737048,-0.0244379276637,-0.00488758553275,1.03225806452
1341687563485119000,146184,1341687563485119000,imu,-0.010752688172,-0.00977517106549,1.02150537634,-0.00488758553275,-0.00684261974585,0.0146627565982,-0.010752688172,-0.00977517106549,1.02150537634
1341687563549194000,146185,1341687563549194000,imu,-0.0117302052786,-0.0156402737048,1.02834799609,-0.100684261975,0.00488758553275,0.0234604105572,-0.0117302052786,-0.0156402737048,1.02834799609
1341687563596578000,146186,1341687563596578000,imu,-0.0234604105572,-0.00293255131965,1.0303030303,-0.058651026393,-0.0058651026393,-0.0019550342131,-0.0234604105572,-0.00293255131965,1.0303030303
1341687563644285000,146187,1341687563644285000,imu,-0.0283479960899,-0.00782013685239,1.04007820137,-0.0449657869013,0.00293255131965,0.0039100684262,-0.0283479960899,-0.00782013685239,1.04007820137
1341687563693025000,146188,1341687563693025000,imu,-0.00782013685239,-0.0175953079179,1.03225806452,-0.0830889540567,0.0166177908113,0.0146627565982,-0.00782013685239,-0.0175953079179,1.03225806452
1341687563741159000,146189,1341687563741159000,imu,-0.0263929618768,0.0146627565982,1.05180840665,-0.0263929618768,0.019550342131,0.0117302052786,-0.0263929618768,0.0146627565982,1.05180840665
1341687563788867000,146190,1341687563788867000,imu,-0.019550342131,-0.00879765395894,1.02052785924,-0.049853372434,-0.0361681329423,0.0361681329423,-0.019550342131,-0.00879765395894,1.02052785924
1341687563836257000,146191,1341687563836257000,imu,-0.0185728250244,0.000977517106549,1.02737047898,-0.010752688172,0.0019550342131,0.0146627565982,-0.0185728250244,0.000977517106549,1.02737047898
1341687563884493000,146192,1341687563884493000,imu,-0.0469208211144,-0.000977517106549,1.05083088954,-0.0371456500489,0.00684261974585,-0.00684261974585,-0.0469208211144,-0.000977517106549,1.05083088954
1341687563949334000,146193,1341687563949334000,imu,-0.0283479960899,-0.0175953079179,1.01173020528,-0.0518084066471,-0.00977517106549,-0.0058651026393,-0.0283479960899,-0.0175953079179,1.01173020528
1341687563997127000,146194,1341687563997127000,imu,-0.0215053763441,-0.0058651026393,1.00586510264,-0.0332355816227,-0.0136852394917,0.030303030303,-0.0215053763441,-0.0058651026393,1.00586510264
1341687564045121000,146195,1341687564045121000,imu,-0.0244379276637,-0.00488758553275,1.03812316716,-0.0439882697947,0.010752688172,0.0410557184751,-0.0244379276637,-0.00488758553275,1.03812316716
1341687564092656000,146196,1341687564092656000,imu,-0.0263929618768,-0.000977517106549,1.05571847507,-0.0488758553275,0.0039100684262,-0.0019550342131,-0.0263929618768,-0.000977517106549,1.05571847507
1341687564141635000,146197,1341687564141635000,imu,-0.0156402737048,-0.0166177908113,1.05571847507,-0.0127077223851,0.0322580645161,0.0215053763441,-0.0156402737048,-0.0166177908113,1.05571847507
1341687564188575000,146198,1341687564188575000,imu,-0.0244379276637,0.00293255131965,1.05571847507,0.0,-0.00782013685239,0.0469208211144,-0.0244379276637,0.00293255131965,1.05571847507
1341687564236983000,146199,1341687564236983000,imu,-0.0136852394917,-0.0136852394917,1.04007820137,-0.0234604105572,-0.00488758553275,0.0175953079179,-0.0136852394917,-0.0136852394917,1.04007820137
1341687564285607000,146200,1341687564285607000,imu,-0.0117302052786,0.00293255131965,1.04692082111,-0.0488758553275,-0.0205278592375,0.0039100684262,-0.0117302052786,0.00293255131965,1.04692082111
1341687564348630000,146201,1341687564348630000,imu,-0.0146627565982,0.0,1.04007820137,-0.0293255131965,-0.0166177908113,0.0136852394917,-0.0146627565982,0.0,1.04007820137
1341687564396834000,146202,1341687564396834000,imu,-0.0156402737048,-0.000977517106549,1.01270772239,-0.0205278592375,0.00293255131965,0.00684261974585,-0.0156402737048,-0.000977517106549,1.01270772239
1341687564444723000,146203,1341687564444723000,imu,-0.0312805474096,0.0,1.02443792766,-0.0527859237537,0.0215053763441,0.019550342131,-0.0312805474096,0.0,1.02443792766
1341687564492634000,146204,1341687564492634000,imu,-0.0215053763441,-0.00293255131965,1.02541544477,-0.0537634408602,-0.019550342131,0.0205278592375,-0.0215053763441,-0.00293255131965,1.02541544477
1341687564540199000,146205,1341687564540199000,imu,-0.0283479960899,0.00293255131965,1.04692082111,-0.030303030303,-0.0117302052786,0.000977517106549,-0.0283479960899,0.00293255131965,1.04692082111
1341687564587901000,146206,1341687564587901000,imu,-0.030303030303,0.0,1.04007820137,0.0469208211144,-0.00782013685239,0.0342130987292,-0.030303030303,0.0,1.04007820137
1341687564636185000,146207,1341687564636185000,imu,-0.0322580645161,0.00293255131965,1.04692082111,-0.0469208211144,-0.0019550342131,0.0361681329423,-0.0322580645161,0.00293255131965,1.04692082111
1341687564699591000,146208,1341687564699591000,imu,-0.0234604105572,-0.0019550342131,1.04398826979,-0.039100684262,-0.00293255131965,0.00782013685239,-0.0234604105572,-0.0019550342131,1.04398826979
1341687564748120000,146209,1341687564748120000,imu,-0.0263929618768,0.00293255131965,1.03714565005,-0.0361681329423,0.0175953079179,0.0527859237537,-0.0263929618768,0.00293255131965,1.03714565005
1341687564795561000,146210,1341687564795561000,imu,-0.0234604105572,-0.00488758553275,1.00586510264,-0.00488758553275,0.019550342131,0.0146627565982,-0.0234604105572,-0.00488758553275,1.00586510264
1341687564844198000,146211,1341687564844198000,imu,-0.0312805474096,0.00293255131965,1.03128054741,-0.0615835777126,0.019550342131,0.00488758553275,-0.0312805474096,0.00293255131965,1.03128054741
1341687564891470000,146212,1341687564891470000,imu,-0.0117302052786,-0.00293255131965,1.02737047898,-0.0733137829912,0.0,0.0224828934506,-0.0117302052786,-0.00293255131965,1.02737047898
1341687564939374000,146213,1341687564939374000,imu,-0.0312805474096,0.0,1.03812316716,-0.0146627565982,-0.00684261974585,-0.010752688172,-0.0312805474096,0.0,1.03812316716
1341687564987543000,146214,1341687564987543000,imu,-0.0185728250244,-0.00879765395894,1.03128054741,-0.0469208211144,-0.0117302052786,0.0127077223851,-0.0185728250244,-0.00879765395894,1.03128054741
1341687565036161000,146215,1341687565036161000,imu,-0.019550342131,-0.0127077223851,1.04007820137,-0.0459433040078,-0.00879765395894,0.0254154447703,-0.019550342131,-0.0127077223851,1.04007820137
1341687565083534000,146216,1341687565083534000,imu,-0.0361681329423,-0.010752688172,1.03225806452,-0.0332355816227,0.0215053763441,0.0,-0.0361681329423,-0.010752688172,1.03225806452
1341687565148024000,146217,1341687565148024000,imu,-0.0205278592375,0.000977517106549,1.04985337243,-0.0361681329423,-0.0215053763441,0.0136852394917,-0.0205278592375,0.000977517106549,1.04985337243
1341687565195496000,146218,1341687565195496000,imu,-0.0215053763441,0.0215053763441,1.05571847507,-0.0928641251222,0.0136852394917,0.0185728250244,-0.0215053763441,0.0215053763441,1.05571847507
1341687565243521000,146219,1341687565243521000,imu,-0.0283479960899,-0.000977517106549,1.04301075269,-0.0674486803519,0.0146627565982,-0.00782013685239,-0.0283479960899,-0.000977517106549,1.04301075269
1341687565291379000,146220,1341687565291379000,imu,0.0058651026393,-0.00488758553275,1.03616813294,-0.0439882697947,0.0175953079179,0.0488758553275,0.0058651026393,-0.00488758553275,1.03616813294
1341687565339464000,146221,1341687565339464000,imu,-0.0322580645161,-0.0117302052786,1.02346041056,-0.0664711632454,0.00782013685239,0.0381231671554,-0.0322580645161,-0.0117302052786,1.02346041056
1341687565387992000,146222,1341687565387992000,imu,-0.0254154447703,-0.00488758553275,1.03323558162,-0.000977517106549,-0.0215053763441,0.0234604105572,-0.0254154447703,-0.00488758553275,1.03323558162
1341687565436624000,146223,1341687565436624000,imu,-0.00782013685239,-0.00293255131965,1.03714565005,-0.0215053763441,-0.00293255131965,0.0557184750733,-0.00782013685239,-0.00293255131965,1.03714565005
1341687565483665000,146224,1341687565483665000,imu,-0.0244379276637,-0.0019550342131,1.02443792766,-0.030303030303,-0.0146627565982,-0.00879765395894,-0.0244379276637,-0.0019550342131,1.02443792766
1341687565531588000,146225,1341687565531588000,imu,-0.0156402737048,-0.0058651026393,1.03519061584,-0.0283479960899,-0.00684261974585,-0.0156402737048,-0.0156402737048,-0.0058651026393,1.03519061584
1341687565596727000,146226,1341687565596727000,imu,-0.0410557184751,-0.0136852394917,1.03421309873,-0.0371456500489,0.0410557184751,0.0185728250244,-0.0410557184751,-0.0136852394917,1.03421309873
1341687565644551000,146227,1341687565644551000,imu,-0.0146627565982,-0.00879765395894,1.02346041056,-0.0166177908113,-0.0039100684262,0.0,-0.0146627565982,-0.00879765395894,1.02346041056
1341687565691638000,146228,1341687565691638000,imu,-0.0166177908113,0.00879765395894,1.02443792766,-0.0312805474096,-0.0019550342131,0.0342130987292,-0.0166177908113,0.00879765395894,1.02443792766
1341687565740300000,146229,1341687565740300000,imu,-0.0185728250244,-0.0039100684262,1.03323558162,-0.019550342131,-0.00293255131965,0.019550342131,-0.0185728250244,-0.0039100684262,1.03323558162
1341687565788194000,146230,1341687565788194000,imu,-0.0254154447703,-0.0127077223851,1.0156402737,-0.0351906158358,-0.0117302052786,0.00684261974585,-0.0254154447703,-0.0127077223851,1.0156402737
1341687565835747000,146231,1341687565835747000,imu,-0.0361681329423,0.0039100684262,1.0449657869,-0.0332355816227,0.0019550342131,0.0273704789834,-0.0361681329423,0.0039100684262,1.0449657869
1341687565883871000,146232,1341687565883871000,imu,-0.0234604105572,-0.0185728250244,1.01759530792,0.00977517106549,0.00488758553275,0.0478983382209,-0.0234604105572,-0.0185728250244,1.01759530792
1341687565948265000,146233,1341687565948265000,imu,-0.0351906158358,0.0058651026393,1.03421309873,-0.0312805474096,-0.0185728250244,0.0058651026393,-0.0351906158358,0.0058651026393,1.03421309873
1341687565995971000,146234,1341687565995971000,imu,-0.0166177908113,0.0,1.01955034213,0.0166177908113,0.00782013685239,0.0273704789834,-0.0166177908113,0.0,1.01955034213
1341687566043615000,146235,1341687566043615000,imu,-0.0273704789834,-0.00879765395894,1.02443792766,0.0019550342131,0.00488758553275,0.0430107526882,-0.0273704789834,-0.00879765395894,1.02443792766
1341687566091575000,146236,1341687566091575000,imu,-0.0175953079179,-0.00684261974585,1.02248289345,0.0019550342131,0.0254154447703,0.0254154447703,-0.0175953079179,-0.00684261974585,1.02248289345
1341687566139771000,146237,1341687566139771000,imu,-0.0185728250244,-0.00977517106549,1.01661779081,-0.0420332355816,0.00684261974585,0.0146627565982,-0.0185728250244,-0.00977517106549,1.01661779081
1341687566188449000,146238,1341687566188449000,imu,-0.019550342131,-0.0019550342131,1.02248289345,-0.0283479960899,-0.0273704789834,0.0019550342131,-0.019550342131,-0.0019550342131,1.02248289345
1341687566252172000,146239,1341687566252172000,imu,-0.0166177908113,0.0127077223851,1.04887585533,-0.0293255131965,-0.00879765395894,0.0439882697947,-0.0166177908113,0.0127077223851,1.04887585533
1341687566300225000,146240,1341687566300225000,imu,-0.019550342131,-0.0166177908113,1.00977517107,-0.0420332355816,-0.0117302052786,0.0439882697947,-0.019550342131,-0.0166177908113,1.00977517107
1341687566347440000,146241,1341687566347440000,imu,-0.0185728250244,-0.00879765395894,1.02834799609,-0.0185728250244,0.00879765395894,0.0733137829912,-0.0185728250244,-0.00879765395894,1.02834799609
1341687566395407000,146242,1341687566395407000,imu,-0.0234604105572,-0.00879765395894,1.01955034213,-0.0175953079179,0.0273704789834,0.0351906158358,-0.0234604105572,-0.00879765395894,1.01955034213
1341687566444512000,146243,1341687566444512000,imu,-0.0215053763441,-0.0019550342131,1.04887585533,-0.0244379276637,-0.0273704789834,-0.00293255131965,-0.0215053763441,-0.0019550342131,1.04887585533
1341687566492192000,146244,1341687566492192000,imu,-0.0146627565982,-0.000977517106549,1.04692082111,-0.0263929618768,0.0254154447703,-0.0156402737048,-0.0146627565982,-0.000977517106549,1.04692082111
1341687566539568000,146245,1341687566539568000,imu,-0.0322580645161,0.00977517106549,1.04789833822,-0.0361681329423,-0.000977517106549,-0.0019550342131,-0.0322580645161,0.00977517106549,1.04789833822
1341687566587472000,146246,1341687566587472000,imu,-0.019550342131,-0.0156402737048,1.0293255132,-0.0449657869013,0.0273704789834,0.0537634408602,-0.019550342131,-0.0156402737048,1.0293255132
1341687566636072000,146247,1341687566636072000,imu,-0.019550342131,0.0019550342131,1.01955034213,-0.00684261974585,-0.0146627565982,0.0175953079179,-0.019550342131,0.0019550342131,1.01955034213
1341687566684512000,146248,1341687566684512000,imu,-0.0175953079179,-0.0039100684262,1.00879765396,-0.058651026393,-0.00293255131965,0.0371456500489,-0.0175953079179,-0.0039100684262,1.00879765396
1341687566747441000,146249,1341687566747441000,imu,-0.030303030303,-0.0146627565982,1.04301075269,-0.00977517106549,0.0127077223851,0.0156402737048,-0.030303030303,-0.0146627565982,1.04301075269
1341687566795522000,146250,1341687566795522000,imu,-0.0322580645161,-0.00977517106549,1.02541544477,0.0185728250244,0.0312805474096,0.0400782013685,-0.0322580645161,-0.00977517106549,1.02541544477
1341687566843341000,146251,1341687566843341000,imu,-0.0205278592375,-0.0166177908113,1.02737047898,-0.0361681329423,0.0312805474096,0.000977517106549,-0.0205278592375,-0.0166177908113,1.02737047898
1341687566892154000,146252,1341687566892154000,imu,-0.0293255131965,-0.000977517106549,1.03519061584,-0.0488758553275,0.0,0.0361681329423,-0.0293255131965,-0.000977517106549,1.03519061584
1341687566940189000,146253,1341687566940189000,imu,-0.0215053763441,0.0039100684262,1.0293255132,-0.0312805474096,0.0342130987292,0.0518084066471,-0.0215053763441,0.0039100684262,1.0293255132
1341687566987987000,146254,1341687566987987000,imu,-0.019550342131,-0.0019550342131,1.02834799609,-0.0488758553275,-0.0224828934506,0.00293255131965,-0.019550342131,-0.0019550342131,1.02834799609
1341687567042679000,146255,1341687567042679000,imu,-0.0175953079179,0.000977517106549,1.01955034213,-0.0224828934506,0.00293255131965,-0.0117302052786,-0.0175953079179,0.000977517106549,1.01955034213
1341687567099869000,146256,1341687567099869000,imu,-0.030303030303,-0.00977517106549,1.05767350929,-0.0371456500489,-0.00684261974585,0.0381231671554,-0.030303030303,-0.00977517106549,1.05767350929
1341687567148182000,146257,1341687567148182000,imu,-0.019550342131,-0.0019550342131,1.02541544477,-0.0293255131965,-0.0039100684262,0.030303030303,-0.019550342131,-0.0019550342131,1.02541544477
1341687567195787000,146258,1341687567195787000,imu,-0.0156402737048,-0.00684261974585,1.03323558162,-0.019550342131,-0.010752688172,0.0371456500489,-0.0156402737048,-0.00684261974585,1.03323558162
1341687567243317000,146259,1341687567243317000,imu,-0.0205278592375,-0.0058651026393,1.0146627566,-0.0332355816227,0.0058651026393,0.0136852394917,-0.0205278592375,-0.0058651026393,1.0146627566
1341687567292433000,146260,1341687567292433000,imu,-0.0117302052786,-0.0117302052786,1.02541544477,-0.0166177908113,-0.010752688172,0.0400782013685,-0.0117302052786,-0.0117302052786,1.02541544477
1341687567339704000,146261,1341687567339704000,imu,-0.00293255131965,-0.0136852394917,1.02150537634,-0.030303030303,-0.0234604105572,0.0400782013685,-0.00293255131965,-0.0136852394917,1.02150537634
1341687567387968000,146262,1341687567387968000,imu,-0.0293255131965,-0.00684261974585,1.04301075269,-0.0459433040078,0.0019550342131,0.0215053763441,-0.0293255131965,-0.00684261974585,1.04301075269
1341687567436364000,146263,1341687567436364000,imu,-0.0244379276637,0.000977517106549,1.0146627566,-0.0224828934506,0.0146627565982,0.0244379276637,-0.0244379276637,0.000977517106549,1.0146627566
1341687567499577000,146264,1341687567499577000,imu,-0.0283479960899,0.0146627565982,1.05278592375,-0.0244379276637,-0.0254154447703,0.010752688172,-0.0283479960899,0.0146627565982,1.05278592375
1341687567547291000,146265,1341687567547291000,imu,0.0,-0.00782013685239,1.02052785924,-0.058651026393,-0.0058651026393,0.0371456500489,0.0,-0.00782013685239,1.02052785924
1341687567596541000,146266,1341687567596541000,imu,-0.0185728250244,-0.0127077223851,1.01955034213,-0.0185728250244,0.030303030303,-0.00879765395894,-0.0185728250244,-0.0127077223851,1.01955034213
1341687567644194000,146267,1341687567644194000,imu,-0.0224828934506,-0.0127077223851,1.02639296188,-0.0596285434995,0.00293255131965,0.0166177908113,-0.0224828934506,-0.0127077223851,1.02639296188
1341687567692904000,146268,1341687567692904000,imu,-0.0166177908113,-0.0117302052786,1.04007820137,-0.0283479960899,-0.0185728250244,0.019550342131,-0.0166177908113,-0.0117302052786,1.04007820137
1341687567739648000,146269,1341687567739648000,imu,-0.0263929618768,0.000977517106549,1.05083088954,0.00879765395894,-0.0039100684262,0.0293255131965,-0.0263929618768,0.000977517106549,1.05083088954
1341687567788699000,146270,1341687567788699000,imu,-0.0205278592375,-0.0058651026393,1.03616813294,-0.0127077223851,0.0,0.0312805474096,-0.0205278592375,-0.0058651026393,1.03616813294
1341687567835570000,146271,1341687567835570000,imu,-0.0175953079179,-0.0205278592375,1.03616813294,-0.0039100684262,-0.00488758553275,-0.0205278592375,-0.0175953079179,-0.0205278592375,1.03616813294
1341687567899615000,146272,1341687567899615000,imu,-0.0146627565982,0.0,1.04985337243,-0.0547409579668,-0.0117302052786,-0.000977517106549,-0.0146627565982,0.0,1.04985337243
1341687567948336000,146273,1341687567948336000,imu,-0.0224828934506,0.00488758553275,1.05180840665,-0.0527859237537,0.0224828934506,0.0322580645161,-0.0224828934506,0.00488758553275,1.05180840665
1341687567995253000,146274,1341687567995253000,imu,-0.0185728250244,-0.010752688172,1.02834799609,-0.0175953079179,0.0263929618768,0.0449657869013,-0.0185728250244,-0.010752688172,1.02834799609
1341687568044028000,146275,1341687568044028000,imu,-0.0175953079179,-0.0117302052786,1.05083088954,-0.0606060606061,-0.0263929618768,0.0,-0.0175953079179,-0.0117302052786,1.05083088954
1341687568091456000,146276,1341687568091456000,imu,-0.0254154447703,0.0039100684262,1.04105571848,-0.0566959921799,0.0263929618768,0.0400782013685,-0.0254154447703,0.0039100684262,1.04105571848
1341687568139809000,146277,1341687568139809000,imu,-0.010752688172,-0.00879765395894,1.02248289345,-0.0273704789834,0.0175953079179,0.0273704789834,-0.010752688172,-0.00879765395894,1.02248289345
1341687568187960000,146278,1341687568187960000,imu,-0.00488758553275,-0.010752688172,1.02834799609,-0.080156402737,0.0,0.00782013685239,-0.00488758553275,-0.010752688172,1.02834799609
1341687568236027000,146279,1341687568236027000,imu,-0.019550342131,0.00293255131965,1.04007820137,0.010752688172,0.0312805474096,0.0488758553275,-0.019550342131,0.00293255131965,1.04007820137
1341687568300071000,146280,1341687568300071000,imu,-0.0234604105572,-0.00488758553275,1.03421309873,-0.0400782013685,-0.0058651026393,0.0215053763441,-0.0234604105572,-0.00488758553275,1.03421309873
1341687568347881000,146281,1341687568347881000,imu,-0.0215053763441,0.00293255131965,1.0449657869,-0.0254154447703,0.0,-0.000977517106549,-0.0215053763441,0.00293255131965,1.0449657869
1341687568394481000,146282,1341687568394481000,imu,-0.019550342131,-0.0146627565982,1.03812316716,-0.0606060606061,-0.0175953079179,0.0635386119257,-0.019550342131,-0.0146627565982,1.03812316716
1341687568442247000,146283,1341687568442247000,imu,-0.0166177908113,-0.0146627565982,1.04105571848,-0.0537634408602,0.019550342131,0.0439882697947,-0.0166177908113,-0.0146627565982,1.04105571848
1341687568490215000,146284,1341687568490215000,imu,-0.0332355816227,0.0019550342131,1.04887585533,-0.0430107526882,-0.010752688172,0.0166177908113,-0.0332355816227,0.0019550342131,1.04887585533
1341687568538247000,146285,1341687568538247000,imu,-0.0156402737048,-0.0019550342131,1.03519061584,-0.00977517106549,0.0156402737048,0.0146627565982,-0.0156402737048,-0.0019550342131,1.03519061584
1341687568586473000,146286,1341687568586473000,imu,-0.00684261974585,-0.010752688172,1.0293255132,-0.0322580645161,-0.00684261974585,0.0273704789834,-0.00684261974585,-0.010752688172,1.0293255132
1341687568635640000,146287,1341687568635640000,imu,-0.0185728250244,0.0127077223851,1.03225806452,-0.0342130987292,0.010752688172,0.0283479960899,-0.0185728250244,0.0127077223851,1.03225806452
1341687568683877000,146288,1341687568683877000,imu,-0.00879765395894,-0.000977517106549,1.02052785924,-0.0156402737048,-0.0146627565982,-0.00879765395894,-0.00879765395894,-0.000977517106549,1.02052785924
1341687568746777000,146289,1341687568746777000,imu,-0.0175953079179,0.00782013685239,1.02150537634,-0.0342130987292,0.00684261974585,0.0635386119257,-0.0175953079179,0.00782013685239,1.02150537634
1341687568794542000,146290,1341687568794542000,imu,-0.0332355816227,0.00684261974585,1.02737047898,-0.0430107526882,-0.00684261974585,0.0430107526882,-0.0332355816227,0.00684261974585,1.02737047898
1341687568842928000,146291,1341687568842928000,imu,-0.0205278592375,0.00293255131965,1.02443792766,-0.0840664711632,0.0215053763441,0.0410557184751,-0.0205278592375,0.00293255131965,1.02443792766
1341687568891544000,146292,1341687568891544000,imu,-0.0205278592375,0.0058651026393,1.03714565005,-0.0156402737048,-0.00488758553275,0.0234604105572,-0.0205278592375,0.0058651026393,1.03714565005
1341687568939109000,146293,1341687568939109000,imu,-0.00977517106549,-0.010752688172,1.01270772239,-0.0254154447703,-0.019550342131,0.0283479960899,-0.00977517106549,-0.010752688172,1.01270772239
1341687568987423000,146294,1341687568987423000,imu,-0.0254154447703,-0.00293255131965,1.03323558162,-0.0381231671554,-0.00879765395894,-0.0166177908113,-0.0254154447703,-0.00293255131965,1.03323558162
1341687569035316000,146295,1341687569035316000,imu,-0.0156402737048,-0.000977517106549,1.02052785924,-0.0234604105572,0.0312805474096,0.0566959921799,-0.0156402737048,-0.000977517106549,1.02052785924
1341687569099315000,146296,1341687569099315000,imu,-0.0205278592375,-0.00684261974585,1.02052785924,0.0127077223851,0.00684261974585,0.0039100684262,-0.0205278592375,-0.00684261974585,1.02052785924
1341687569147433000,146297,1341687569147433000,imu,-0.00782013685239,-0.00782013685239,1.03910068426,-0.0215053763441,-0.00684261974585,0.0244379276637,-0.00782013685239,-0.00782013685239,1.03910068426
1341687569194303000,146298,1341687569194303000,imu,-0.019550342131,-0.00879765395894,1.05571847507,-0.0596285434995,0.000977517106549,0.0136852394917,-0.019550342131,-0.00879765395894,1.05571847507
1341687569243529000,146299,1341687569243529000,imu,-0.010752688172,-0.00488758553275,1.02541544477,-0.0127077223851,-0.00684261974585,0.0254154447703,-0.010752688172,-0.00488758553275,1.02541544477
1341687569290757000,146300,1341687569290757000,imu,-0.0127077223851,-0.0166177908113,1.03225806452,-0.0185728250244,0.0136852394917,0.010752688172,-0.0127077223851,-0.0166177908113,1.03225806452
1341687569338430000,146301,1341687569338430000,imu,-0.00782013685239,-0.0058651026393,1.0303030303,-0.0322580645161,0.00879765395894,0.0293255131965,-0.00782013685239,-0.0058651026393,1.0303030303
1341687569387156000,146302,1341687569387156000,imu,-0.0215053763441,0.0146627565982,1.03910068426,-0.0381231671554,0.00977517106549,0.0410557184751,-0.0215053763441,0.0146627565982,1.03910068426
1341687569450744000,146303,1341687569450744000,imu,-0.019550342131,-0.0058651026393,1.03421309873,-0.0518084066471,0.00782013685239,0.0430107526882,-0.019550342131,-0.0058651026393,1.03421309873
1341687569498462000,146304,1341687569498462000,imu,-0.0166177908113,-0.00879765395894,1.01759530792,-0.030303030303,-0.00879765395894,0.0361681329423,-0.0166177908113,-0.00879765395894,1.01759530792
1341687569546842000,146305,1341687569546842000,imu,-0.0293255131965,-0.00293255131965,1.0293255132,-0.0381231671554,0.0039100684262,0.0263929618768,-0.0293255131965,-0.00293255131965,1.0293255132
1341687569594743000,146306,1341687569594743000,imu,-0.019550342131,-0.0156402737048,1.02834799609,-0.0420332355816,0.00293255131965,0.0019550342131,-0.019550342131,-0.0156402737048,1.02834799609
1341687569643109000,146307,1341687569643109000,imu,-0.00977517106549,-0.000977517106549,1.04203323558,-0.00684261974585,0.0136852394917,-0.0058651026393,-0.00977517106549,-0.000977517106549,1.04203323558
1341687569690460000,146308,1341687569690460000,imu,-0.0322580645161,0.0039100684262,1.04398826979,-0.0254154447703,0.000977517106549,0.019550342131,-0.0322580645161,0.0039100684262,1.04398826979
1341687569740413000,146309,1341687569740413000,imu,-0.0224828934506,0.000977517106549,1.03323558162,-0.0449657869013,-0.00879765395894,-0.010752688172,-0.0224828934506,0.000977517106549,1.03323558162
1341687569786324000,146310,1341687569786324000,imu,-0.0293255131965,0.0058651026393,1.03128054741,-0.039100684262,-0.00488758553275,0.0019550342131,-0.0293255131965,0.0058651026393,1.03128054741
1341687569834342000,146311,1341687569834342000,imu,-0.030303030303,0.000977517106549,1.0303030303,-0.0293255131965,0.0019550342131,0.019550342131,-0.030303030303,0.000977517106549,1.0303030303
1341687569899326000,146312,1341687569899326000,imu,-0.019550342131,-0.00488758553275,1.01368523949,-0.0058651026393,-0.000977517106549,0.0136852394917,-0.019550342131,-0.00488758553275,1.01368523949
1341687569947042000,146313,1341687569947042000,imu,-0.0205278592375,-0.0117302052786,1.02541544477,-0.0332355816227,-0.0400782013685,0.0019550342131,-0.0205278592375,-0.0117302052786,1.02541544477
1341687569994976000,146314,1341687569994976000,imu,-0.0244379276637,0.00782013685239,1.02737047898,0.0254154447703,-0.0019550342131,0.0254154447703,-0.0244379276637,0.00782013685239,1.02737047898
1341687570042347000,146315,1341687570042347000,imu,-0.0400782013685,-0.0117302052786,1.00684261975,-0.0371456500489,-0.0185728250244,0.0332355816227,-0.0400782013685,-0.0117302052786,1.00684261975
1341687570090957000,146316,1341687570090957000,imu,-0.0234604105572,-0.00879765395894,1.03128054741,-0.0185728250244,-0.00488758553275,-0.030303030303,-0.0234604105572,-0.00879765395894,1.03128054741
1341687570138349000,146317,1341687570138349000,imu,-0.0156402737048,-0.0166177908113,1.01368523949,-0.0547409579668,0.0263929618768,-0.0146627565982,-0.0156402737048,-0.0166177908113,1.01368523949
1341687570202269000,146318,1341687570202269000,imu,-0.0215053763441,-0.0058651026393,1.03616813294,0.00293255131965,0.00488758553275,0.0361681329423,-0.0215053763441,-0.0058651026393,1.03616813294
1341687570250507000,146319,1341687570250507000,imu,-0.019550342131,-0.0127077223851,1.02639296188,-0.0371456500489,-0.00293255131965,0.010752688172,-0.019550342131,-0.0127077223851,1.02639296188
1341687570299623000,146320,1341687570299623000,imu,-0.0400782013685,0.000977517106549,1.04398826979,-0.0273704789834,0.00977517106549,0.0342130987292,-0.0400782013685,0.000977517106549,1.04398826979
1341687570347370000,146321,1341687570347370000,imu,-0.0254154447703,-0.00879765395894,1.03812316716,-0.019550342131,0.0039100684262,0.0283479960899,-0.0254154447703,-0.00879765395894,1.03812316716
1341687570395414000,146322,1341687570395414000,imu,-0.0175953079179,-0.0039100684262,1.01173020528,-0.0566959921799,-0.00488758553275,0.0654936461388,-0.0175953079179,-0.0039100684262,1.01173020528
1341687570442748000,146323,1341687570442748000,imu,-0.00782013685239,0.00488758553275,1.00195503421,-0.0351906158358,-0.00782013685239,0.0224828934506,-0.00782013685239,0.00488758553275,1.00195503421
1341687570490623000,146324,1341687570490623000,imu,-0.019550342131,-0.0254154447703,1.01173020528,-0.0283479960899,-0.0146627565982,-0.000977517106549,-0.019550342131,-0.0254154447703,1.01173020528
1341687570539029000,146325,1341687570539029000,imu,-0.0117302052786,-0.000977517106549,1.01661779081,-0.00684261974585,0.0175953079179,0.0410557184751,-0.0117302052786,-0.000977517106549,1.01661779081
1341687570586600000,146326,1341687570586600000,imu,-0.0312805474096,-0.00782013685239,1.05278592375,-0.0312805474096,0.0283479960899,0.0420332355816,-0.0312805474096,-0.00782013685239,1.05278592375
1341687570634872000,146327,1341687570634872000,imu,-0.0156402737048,-0.0166177908113,1.03225806452,0.0,-0.00782013685239,-0.00293255131965,-0.0156402737048,-0.0166177908113,1.03225806452
1341687570698293000,146328,1341687570698293000,imu,-0.0205278592375,-0.00782013685239,1.03225806452,-0.0527859237537,0.0224828934506,0.0254154447703,-0.0205278592375,-0.00782013685239,1.03225806452
1341687570746944000,146329,1341687570746944000,imu,-0.0175953079179,0.0019550342131,1.02639296188,-0.0283479960899,-0.0058651026393,0.0381231671554,-0.0175953079179,0.0019550342131,1.02639296188
1341687570794584000,146330,1341687570794584000,imu,-0.0156402737048,-0.00488758553275,1.01759530792,-0.0430107526882,-0.0117302052786,0.0156402737048,-0.0156402737048,-0.00488758553275,1.01759530792
1341687570843003000,146331,1341687570843003000,imu,-0.0224828934506,-0.010752688172,1.02834799609,-0.00684261974585,0.0312805474096,0.00293255131965,-0.0224828934506,-0.010752688172,1.02834799609
1341687570890867000,146332,1341687570890867000,imu,-0.0263929618768,0.0,1.04301075269,-0.0371456500489,-0.0117302052786,0.00684261974585,-0.0263929618768,0.0,1.04301075269
1341687570938571000,146333,1341687570938571000,imu,-0.0361681329423,-0.00782013685239,1.04398826979,0.0019550342131,0.0234604105572,0.00977517106549,-0.0361681329423,-0.00782013685239,1.04398826979
1341687570987264000,146334,1341687570987264000,imu,-0.0156402737048,-0.0127077223851,1.05376344086,0.0156402737048,0.00782013685239,-0.0254154447703,-0.0156402737048,-0.0127077223851,1.05376344086
1341687571035217000,146335,1341687571035217000,imu,-0.00977517106549,-0.000977517106549,1.03421309873,-0.0224828934506,0.00977517106549,0.0361681329423,-0.00977517106549,-0.000977517106549,1.03421309873
1341687571098781000,146336,1341687571098781000,imu,-0.0166177908113,-0.0234604105572,1.00782013685,-0.0039100684262,-0.0156402737048,-0.0127077223851,-0.0166177908113,-0.0234604105572,1.00782013685
1341687571147058000,146337,1341687571147058000,imu,-0.010752688172,0.0,1.04692082111,-0.010752688172,-0.00488758553275,-0.0127077223851,-0.010752688172,0.0,1.04692082111
1341687571194477000,146338,1341687571194477000,imu,-0.0166177908113,-0.00293255131965,1.03323558162,-0.019550342131,0.00879765395894,0.0459433040078,-0.0166177908113,-0.00293255131965,1.03323558162
1341687571242989000,146339,1341687571242989000,imu,-0.0273704789834,0.000977517106549,1.03519061584,-0.0508308895406,-0.0146627565982,0.0244379276637,-0.0273704789834,0.000977517106549,1.03519061584
1341687571290863000,146340,1341687571290863000,imu,-0.0185728250244,-0.00488758553275,1.03910068426,-0.0156402737048,0.0175953079179,-0.0127077223851,-0.0185728250244,-0.00488758553275,1.03910068426
1341687571338877000,146341,1341687571338877000,imu,-0.0351906158358,0.0039100684262,1.04007820137,-0.0127077223851,0.00879765395894,0.0332355816227,-0.0351906158358,0.0039100684262,1.04007820137
1341687571387303000,146342,1341687571387303000,imu,-0.0400782013685,-0.00977517106549,1.04007820137,-0.0234604105572,0.00879765395894,0.019550342131,-0.0400782013685,-0.00977517106549,1.04007820137
1341687571451142000,146343,1341687571451142000,imu,-0.0273704789834,-0.0117302052786,1.03910068426,-0.0518084066471,-0.0156402737048,0.0244379276637,-0.0273704789834,-0.0117302052786,1.03910068426
1341687571498916000,146344,1341687571498916000,imu,-0.0312805474096,-0.0166177908113,1.03519061584,-0.0527859237537,-0.000977517106549,0.0449657869013,-0.0312805474096,-0.0166177908113,1.03519061584
1341687571547031000,146345,1341687571547031000,imu,-0.0322580645161,-0.0146627565982,1.00977517107,-0.0117302052786,0.00488758553275,0.0156402737048,-0.0322580645161,-0.0146627565982,1.00977517107
1341687571594532000,146346,1341687571594532000,imu,-0.0293255131965,0.0039100684262,1.04692082111,-0.0146627565982,0.010752688172,-0.00684261974585,-0.0293255131965,0.0039100684262,1.04692082111
1341687571642401000,146347,1341687571642401000,imu,-0.0254154447703,-0.0146627565982,1.04985337243,-0.0410557184751,-0.030303030303,0.0039100684262,-0.0254154447703,-0.0146627565982,1.04985337243
1341687571690892000,146348,1341687571690892000,imu,-0.0234604105572,-0.00293255131965,1.02737047898,-0.0508308895406,0.0166177908113,0.00879765395894,-0.0234604105572,-0.00293255131965,1.02737047898
1341687571739443000,146349,1341687571739443000,imu,-0.0244379276637,-0.00782013685239,1.04203323558,-0.0342130987292,0.0136852394917,0.00488758553275,-0.0244379276637,-0.00782013685239,1.04203323558
1341687571786937000,146350,1341687571786937000,imu,-0.010752688172,-0.0039100684262,1.03323558162,-0.0654936461388,0.00488758553275,0.00684261974585,-0.010752688172,-0.0039100684262,1.03323558162
1341687571850339000,146351,1341687571850339000,imu,-0.019550342131,-0.00488758553275,1.02834799609,-0.0488758553275,0.0019550342131,0.039100684262,-0.019550342131,-0.00488758553275,1.02834799609
1341687571898435000,146352,1341687571898435000,imu,-0.0175953079179,-0.00782013685239,1.05278592375,0.0185728250244,0.00879765395894,0.0361681329423,-0.0175953079179,-0.00782013685239,1.05278592375
1341687571946211000,146353,1341687571946211000,imu,-0.0254154447703,-0.0127077223851,1.01857282502,-0.0166177908113,0.010752688172,0.0322580645161,-0.0254154447703,-0.0127077223851,1.01857282502
1341687571995146000,146354,1341687571995146000,imu,-0.0322580645161,-0.0156402737048,1.01173020528,-0.0185728250244,0.0166177908113,0.0175953079179,-0.0322580645161,-0.0156402737048,1.01173020528
1341687572043125000,146355,1341687572043125000,imu,-0.0234604105572,0.00782013685239,1.03616813294,0.0039100684262,0.0283479960899,-0.0019550342131,-0.0234604105572,0.00782013685239,1.03616813294
1341687572090668000,146356,1341687572090668000,imu,-0.0234604105572,0.0039100684262,1.04692082111,0.00782013685239,0.0039100684262,0.00977517106549,-0.0234604105572,0.0039100684262,1.04692082111
1341687572138805000,146357,1341687572138805000,imu,-0.0234604105572,0.0058651026393,1.04301075269,-0.0205278592375,-0.019550342131,0.0039100684262,-0.0234604105572,0.0058651026393,1.04301075269
1341687572186696000,146358,1341687572186696000,imu,-0.0254154447703,-0.00293255131965,1.02541544477,-0.0263929618768,0.0,0.0273704789834,-0.0254154447703,-0.00293255131965,1.02541544477
1341687572233954000,146359,1341687572233954000,imu,-0.0273704789834,-0.00879765395894,1.03128054741,-0.0322580645161,0.010752688172,-0.0039100684262,-0.0273704789834,-0.00879765395894,1.03128054741
1341687572297801000,146360,1341687572297801000,imu,-0.0283479960899,-0.00879765395894,1.02737047898,-0.0674486803519,-0.000977517106549,-0.00488758553275,-0.0283479960899,-0.00879765395894,1.02737047898
1341687572345429000,146361,1341687572345429000,imu,-0.019550342131,0.0058651026393,1.0449657869,0.00879765395894,-0.0117302052786,0.0439882697947,-0.019550342131,0.0058651026393,1.0449657869
1341687572393317000,146362,1341687572393317000,imu,-0.0136852394917,0.00488758553275,1.05180840665,-0.0244379276637,0.0215053763441,0.0127077223851,-0.0136852394917,0.00488758553275,1.05180840665
1341687572440997000,146363,1341687572440997000,imu,-0.0156402737048,-0.00293255131965,1.01661779081,-0.0117302052786,0.0273704789834,0.0175953079179,-0.0156402737048,-0.00293255131965,1.01661779081
1341687572490504000,146364,1341687572490504000,imu,-0.019550342131,0.000977517106549,1.05278592375,-0.0224828934506,-0.019550342131,0.0293255131965,-0.019550342131,0.000977517106549,1.05278592375
1341687572538293000,146365,1341687572538293000,imu,-0.0273704789834,0.00684261974585,1.0293255132,0.00977517106549,0.0400782013685,0.0420332355816,-0.0273704789834,0.00684261974585,1.0293255132
1341687572586148000,146366,1341687572586148000,imu,-0.0185728250244,-0.00782013685239,1.04398826979,-0.0557184750733,-0.0117302052786,0.0430107526882,-0.0185728250244,-0.00782013685239,1.04398826979
1341687572649763000,146367,1341687572649763000,imu,-0.0293255131965,0.0058651026393,1.04007820137,-0.0508308895406,-0.00879765395894,0.0127077223851,-0.0293255131965,0.0058651026393,1.04007820137
1341687572698270000,146368,1341687572698270000,imu,-0.0146627565982,0.0019550342131,1.03323558162,-0.0127077223851,0.0039100684262,-0.00977517106549,-0.0146627565982,0.0019550342131,1.03323558162
1341687572745140000,146369,1341687572745140000,imu,-0.0273704789834,-0.0039100684262,1.03323558162,-0.049853372434,-0.019550342131,0.0215053763441,-0.0273704789834,-0.0039100684262,1.03323558162
1341687572793440000,146370,1341687572793440000,imu,-0.0117302052786,-0.0146627565982,1.04692082111,-0.0312805474096,-0.0127077223851,0.0166177908113,-0.0117302052786,-0.0146627565982,1.04692082111
1341687572841970000,146371,1341687572841970000,imu,-0.0234604105572,0.0058651026393,1.04203323558,-0.0215053763441,0.00879765395894,0.0263929618768,-0.0234604105572,0.0058651026393,1.04203323558
1341687572890324000,146372,1341687572890324000,imu,-0.0273704789834,-0.0039100684262,1.03323558162,-0.0527859237537,0.0283479960899,0.0263929618768,-0.0273704789834,-0.0039100684262,1.03323558162
1341687572937823000,146373,1341687572937823000,imu,-0.0244379276637,-0.0127077223851,1.03616813294,-0.0840664711632,0.0381231671554,0.0351906158358,-0.0244379276637,-0.0127077223851,1.03616813294
1341687572986018000,146374,1341687572986018000,imu,-0.0175953079179,-0.0136852394917,1.0,-0.0400782013685,-0.0146627565982,0.0185728250244,-0.0175953079179,-0.0136852394917,1.0
1341687573033693000,146375,1341687573033693000,imu,-0.0244379276637,-0.00684261974585,1.02541544477,-0.039100684262,-0.00684261974585,0.0117302052786,-0.0244379276637,-0.00684261974585,1.02541544477
1341687573098012000,146376,1341687573098012000,imu,-0.0127077223851,0.0058651026393,1.03812316716,-0.0332355816227,-0.000977517106549,-0.00879765395894,-0.0127077223851,0.0058651026393,1.03812316716
1341687573145235000,146377,1341687573145235000,imu,-0.0263929618768,-0.00879765395894,1.03323558162,0.0185728250244,-0.0039100684262,0.0459433040078,-0.0263929618768,-0.00879765395894,1.03323558162
1341687573194076000,146378,1341687573194076000,imu,-0.0234604105572,0.00879765395894,1.01759530792,-0.0537634408602,-0.0205278592375,0.00782013685239,-0.0234604105572,0.00879765395894,1.01759530792
1341687573241629000,146379,1341687573241629000,imu,-0.0205278592375,0.0019550342131,1.02443792766,-0.0342130987292,0.0058651026393,0.0254154447703,-0.0205278592375,0.0019550342131,1.02443792766
1341687573290087000,146380,1341687573290087000,imu,-0.0146627565982,-0.00293255131965,1.04985337243,-0.0312805474096,-0.0185728250244,0.030303030303,-0.0146627565982,-0.00293255131965,1.04985337243
1341687573337436000,146381,1341687573337436000,imu,-0.0166177908113,0.00782013685239,1.04594330401,-0.0263929618768,-0.0039100684262,0.0469208211144,-0.0166177908113,0.00782013685239,1.04594330401
1341687573385309000,146382,1341687573385309000,imu,-0.0244379276637,0.0127077223851,1.02443792766,-0.0733137829912,-0.0117302052786,0.0322580645161,-0.0244379276637,0.0127077223851,1.02443792766
1341687573434295000,146383,1341687573434295000,imu,-0.0215053763441,-0.00293255131965,1.03225806452,0.0166177908113,0.0244379276637,0.0518084066471,-0.0215053763441,-0.00293255131965,1.03225806452
1341687573497950000,146384,1341687573497950000,imu,-0.0136852394917,-0.00977517106549,1.03323558162,-0.0557184750733,-0.0039100684262,0.039100684262,-0.0136852394917,-0.00977517106549,1.03323558162
1341687573545512000,146385,1341687573545512000,imu,-0.0234604105572,0.000977517106549,1.03323558162,-0.0527859237537,-0.010752688172,0.0469208211144,-0.0234604105572,0.000977517106549,1.03323558162
1341687573593997000,146386,1341687573593997000,imu,-0.0166177908113,-0.00782013685239,1.01955034213,-0.0371456500489,0.0156402737048,0.0312805474096,-0.0166177908113,-0.00782013685239,1.01955034213
1341687573641394000,146387,1341687573641394000,imu,-0.0244379276637,0.000977517106549,1.02639296188,-0.0557184750733,-0.0263929618768,0.0488758553275,-0.0244379276637,0.000977517106549,1.02639296188
1341687573689508000,146388,1341687573689508000,imu,-0.0283479960899,-0.0117302052786,1.0156402737,-0.0205278592375,0.0039100684262,0.0185728250244,-0.0283479960899,-0.0117302052786,1.0156402737
1341687573738106000,146389,1341687573738106000,imu,-0.030303030303,-0.00488758553275,1.0293255132,-0.0185728250244,-0.00293255131965,-0.0058651026393,-0.030303030303,-0.00488758553275,1.0293255132
1341687573801796000,146390,1341687573801796000,imu,-0.0332355816227,-0.00293255131965,1.03714565005,-0.0244379276637,0.0,0.00488758553275,-0.0332355816227,-0.00293255131965,1.03714565005
1341687573850456000,146391,1341687573850456000,imu,-0.0234604105572,-0.00782013685239,1.0303030303,-0.0244379276637,-0.0136852394917,-0.0166177908113,-0.0234604105572,-0.00782013685239,1.0303030303
1341687573897547000,146392,1341687573897547000,imu,-0.0175953079179,-0.0166177908113,1.03323558162,-0.0400782013685,-0.0019550342131,0.0156402737048,-0.0175953079179,-0.0166177908113,1.03323558162
1341687573945830000,146393,1341687573945830000,imu,-0.0244379276637,0.010752688172,1.03128054741,-0.0293255131965,0.0117302052786,0.0459433040078,-0.0244379276637,0.010752688172,1.03128054741
1341687573993263000,146394,1341687573993263000,imu,-0.0146627565982,-0.0215053763441,1.02541544477,-0.030303030303,-0.00782013685239,-0.00293255131965,-0.0146627565982,-0.0215053763441,1.02541544477
1341687574041489000,146395,1341687574041489000,imu,-0.0351906158358,-0.0039100684262,1.0449657869,-0.0361681329423,-0.00782013685239,-0.00488758553275,-0.0351906158358,-0.0039100684262,1.0449657869
1341687574089058000,146396,1341687574089058000,imu,-0.0322580645161,0.0,1.05767350929,-0.0439882697947,-0.019550342131,0.0117302052786,-0.0322580645161,0.0,1.05767350929
1341687574137976000,146397,1341687574137976000,imu,-0.00782013685239,0.00488758553275,1.0449657869,-0.0263929618768,0.010752688172,0.0361681329423,-0.00782013685239,0.00488758553275,1.0449657869
1341687574185507000,146398,1341687574185507000,imu,-0.0244379276637,-0.00879765395894,1.04887585533,-0.0205278592375,0.0263929618768,0.0625610948192,-0.0244379276637,-0.00879765395894,1.04887585533
1341687574249540000,146399,1341687574249540000,imu,-0.010752688172,-0.00879765395894,1.02541544477,-0.030303030303,0.0019550342131,-0.000977517106549,-0.010752688172,-0.00879765395894,1.02541544477
1341687574297167000,146400,1341687574297167000,imu,-0.0342130987292,-0.0019550342131,1.03714565005,-0.000977517106549,0.00977517106549,0.0410557184751,-0.0342130987292,-0.0019550342131,1.03714565005
1341687574345670000,146401,1341687574345670000,imu,-0.0244379276637,0.00879765395894,1.0449657869,-0.0430107526882,0.00977517106549,0.0342130987292,-0.0244379276637,0.00879765395894,1.0449657869
1341687574393832000,146402,1341687574393832000,imu,-0.0322580645161,-0.00488758553275,1.02248289345,-0.0156402737048,0.0058651026393,0.0283479960899,-0.0322580645161,-0.00488758553275,1.02248289345
1341687574441843000,146403,1341687574441843000,imu,-0.0342130987292,-0.00293255131965,1.03714565005,-0.0224828934506,0.0166177908113,0.049853372434,-0.0342130987292,-0.00293255131965,1.03714565005
1341687574489489000,146404,1341687574489489000,imu,-0.0156402737048,0.0146627565982,1.03421309873,0.000977517106549,0.0166177908113,-0.0117302052786,-0.0156402737048,0.0146627565982,1.03421309873
1341687574537652000,146405,1341687574537652000,imu,-0.0234604105572,0.00293255131965,1.03910068426,-0.0488758553275,0.0283479960899,0.0312805474096,-0.0234604105572,0.00293255131965,1.03910068426
1341687574585846000,146406,1341687574585846000,imu,-0.0273704789834,-0.0117302052786,1.03910068426,-0.0224828934506,0.0019550342131,-0.0019550342131,-0.0273704789834,-0.0117302052786,1.03910068426
1341687574649136000,146407,1341687574649136000,imu,-0.0234604105572,-0.010752688172,1.0293255132,-0.0420332355816,0.00782013685239,0.0537634408602,-0.0234604105572,-0.010752688172,1.0293255132
1341687574697932000,146408,1341687574697932000,imu,-0.030303030303,-0.0166177908113,1.0449657869,-0.0263929618768,-0.0019550342131,0.0175953079179,-0.030303030303,-0.0166177908113,1.0449657869
1341687574745330000,146409,1341687574745330000,imu,-0.00782013685239,-0.00293255131965,1.03323558162,-0.0518084066471,-0.0166177908113,-0.00293255131965,-0.00782013685239,-0.00293255131965,1.03323558162
1341687574793612000,146410,1341687574793612000,imu,-0.0283479960899,0.0019550342131,1.02541544477,-0.0117302052786,-0.0058651026393,0.0449657869013,-0.0283479960899,0.0019550342131,1.02541544477
1341687574841638000,146411,1341687574841638000,imu,-0.0351906158358,0.00782013685239,1.03323558162,-0.00879765395894,-0.0019550342131,0.0205278592375,-0.0351906158358,0.00782013685239,1.03323558162
1341687574889495000,146412,1341687574889495000,imu,-0.0234604105572,0.0,1.00879765396,-0.0322580645161,0.0058651026393,0.010752688172,-0.0234604105572,0.0,1.00879765396
1341687574937886000,146413,1341687574937886000,imu,-0.0224828934506,-0.00488758553275,1.04398826979,-0.00488758553275,0.0146627565982,0.0244379276637,-0.0224828934506,-0.00488758553275,1.04398826979
1341687574985414000,146414,1341687574985414000,imu,-0.0175953079179,-0.00879765395894,1.04301075269,-0.0772238514174,-0.0117302052786,0.0185728250244,-0.0175953079179,-0.00879765395894,1.04301075269
1341687575050212000,146415,1341687575050212000,imu,-0.019550342131,0.00879765395894,1.04301075269,0.0136852394917,0.0039100684262,-0.0273704789834,-0.019550342131,0.00879765395894,1.04301075269
1341687575097849000,146416,1341687575097849000,imu,-0.0146627565982,0.00293255131965,1.03128054741,-0.0566959921799,-0.00684261974585,0.0205278592375,-0.0146627565982,0.00293255131965,1.03128054741
1341687575145331000,146417,1341687575145331000,imu,-0.0381231671554,0.0,1.02150537634,-0.0322580645161,0.0039100684262,0.0,-0.0381231671554,0.0,1.02150537634
1341687575194328000,146418,1341687575194328000,imu,-0.0430107526882,-0.000977517106549,1.03616813294,-0.0537634408602,-0.00977517106549,-0.019550342131,-0.0430107526882,-0.000977517106549,1.03616813294
1341687575242098000,146419,1341687575242098000,imu,-0.0244379276637,-0.00684261974585,1.03616813294,-0.0664711632454,0.0381231671554,0.0127077223851,-0.0244379276637,-0.00684261974585,1.03616813294
1341687575289554000,146420,1341687575289554000,imu,-0.0117302052786,-0.0166177908113,1.02541544477,-0.0293255131965,0.0224828934506,0.0478983382209,-0.0117302052786,-0.0166177908113,1.02541544477
1341687575337383000,146421,1341687575337383000,imu,-0.0234604105572,0.0,1.00488758553,-0.0439882697947,0.0146627565982,0.0488758553275,-0.0234604105572,0.0,1.00488758553
1341687575385323000,146422,1341687575385323000,imu,-0.0156402737048,-0.00879765395894,1.03128054741,-0.0039100684262,0.000977517106549,0.0606060606061,-0.0156402737048,-0.00879765395894,1.03128054741
1341687575449510000,146423,1341687575449510000,imu,-0.0185728250244,0.0,1.0156402737,-0.000977517106549,-0.000977517106549,0.0371456500489,-0.0185728250244,0.0,1.0156402737
1341687575498454000,146424,1341687575498454000,imu,-0.0381231671554,-0.0127077223851,1.02443792766,-0.0312805474096,0.000977517106549,0.00879765395894,-0.0381231671554,-0.0127077223851,1.02443792766
1341687575546015000,146425,1341687575546015000,imu,-0.0322580645161,-0.00879765395894,1.01661779081,0.00488758553275,-0.0283479960899,0.0478983382209,-0.0322580645161,-0.00879765395894,1.01661779081
1341687575594037000,146426,1341687575594037000,imu,-0.0136852394917,0.00977517106549,1.03616813294,-0.0312805474096,-0.00782013685239,0.0234604105572,-0.0136852394917,0.00977517106549,1.03616813294
1341687575641369000,146427,1341687575641369000,imu,-0.019550342131,-0.00879765395894,1.04887585533,-0.0557184750733,-0.00293255131965,0.0224828934506,-0.019550342131,-0.00879765395894,1.04887585533
1341687575690319000,146428,1341687575690319000,imu,-0.0254154447703,0.0039100684262,1.03519061584,-0.0557184750733,-0.0039100684262,0.0420332355816,-0.0254154447703,0.0039100684262,1.03519061584
1341687575737153000,146429,1341687575737153000,imu,-0.0312805474096,0.0,1.03616813294,-0.0273704789834,-0.00488758553275,0.00488758553275,-0.0312805474096,0.0,1.03616813294
1341687575801117000,146430,1341687575801117000,imu,-0.0312805474096,-0.00879765395894,1.02541544477,-0.0136852394917,0.0146627565982,0.0117302052786,-0.0312805474096,-0.00879765395894,1.02541544477
1341687575848594000,146431,1341687575848594000,imu,-0.0215053763441,-0.00782013685239,1.0596285435,0.0166177908113,0.000977517106549,0.00293255131965,-0.0215053763441,-0.00782013685239,1.0596285435
1341687575896811000,146432,1341687575896811000,imu,-0.0254154447703,0.0039100684262,1.04007820137,-0.0664711632454,0.0019550342131,-0.00488758553275,-0.0254154447703,0.0039100684262,1.04007820137
1341687575945018000,146433,1341687575945018000,imu,-0.0185728250244,0.00782013685239,1.04203323558,-0.0439882697947,-0.0039100684262,-0.0215053763441,-0.0185728250244,0.00782013685239,1.04203323558
1341687575992596000,146434,1341687575992596000,imu,-0.0224828934506,-0.00879765395894,1.04105571848,-0.0156402737048,-0.00684261974585,0.030303030303,-0.0224828934506,-0.00879765395894,1.04105571848
1341687576039908000,146435,1341687576039908000,imu,-0.0185728250244,-0.00879765395894,1.0146627566,-0.0283479960899,-0.010752688172,0.0273704789834,-0.0185728250244,-0.00879765395894,1.0146627566
1341687576088063000,146436,1341687576088063000,imu,-0.0342130987292,-0.0156402737048,1.00684261975,-0.0263929618768,-0.0039100684262,0.00684261974585,-0.0342130987292,-0.0156402737048,1.00684261975
1341687576136253000,146437,1341687576136253000,imu,-0.0185728250244,0.00293255131965,1.03421309873,-0.0410557184751,0.019550342131,0.0469208211144,-0.0185728250244,0.00293255131965,1.03421309873
1341687576185433000,146438,1341687576185433000,imu,-0.0224828934506,-0.010752688172,1.02150537634,-0.010752688172,0.0127077223851,-0.0254154447703,-0.0224828934506,-0.010752688172,1.02150537634
